{"type":"FeatureCollection","features":[{"type":"Feature","properties":{"OBJECTID":1,"FEATURE_ID":903090,"ESITE":"933275","CODE":903,"NAME":"Pike Place Market Express-Denny Regrade","ABB_NAME":"Pike Place Market Express-Denny Regrade","ADDRESS":"7th Ave and Lenora St","ZIPCODE":"98121","CITY":"Seattle","LOCATION":"7th Ave and Lenora St","WEBSITE":"http://www.pikeplacemarket.org/","COUNTYNAME":"King","START_DATE":"2017-05-30T00:00:00.000Z","END_DATE":"2017-10-10T00:00:00.000Z","DAYOFWEEK":"Tuesdays","STARTTIME":"10:00:00 AM","ENDTIME":"2:00:00 PM","CRDITDEBIT":"TRUE","EBTFDSTAMP":"FALSE"},"geometry":{"type":"Point","coordinates":[-122.33877145041178,47.61553762236525]}},{"type":"Feature","properties":{"OBJECTID":2,"FEATURE_ID":903091,"ESITE":"941236","CODE":903,"NAME":"Pike Place Market Express-First Hill","ABB_NAME":"Pike Place Market Express-First Hill","ADDRESS":"9th Ave and University St","ZIPCODE":"98101","CITY":"Seattle","LOCATION":"9th Ave between University and Seneca Streets","WEBSITE":"http://www.pikeplacemarket.org/","COUNTYNAME":"King","START_DATE":"2017-06-02T00:00:00.000Z","END_DATE":"2017-10-13T00:00:00.000Z","DAYOFWEEK":"Fridays","STARTTIME":"10:00:00 AM","ENDTIME":"2:00:00 PM","CRDITDEBIT":"TRUE","EBTFDSTAMP":"FALSE"},"geometry":{"type":"Point","coordinates":[-122.3287408256667,47.61024618470325]}},{"type":"Feature","properties":{"OBJECTID":3,"FEATURE_ID":903092,"ESITE":"985001","CODE":903,"NAME":"The Landing Farmers Market in Renton","ABB_NAME":"The Landing Farmers Market in Renton","ADDRESS":"915 N Landing Way","ZIPCODE":"98057","CITY":"Renton","LOCATION":"915 North Landing Way","WEBSITE":"http://www.pugetsoundfresh.org/market/landing-farmers-market-renton","COUNTYNAME":"King","START_DATE":"2017-06-08T00:00:00.000Z","END_DATE":"2017-09-14T00:00:00.000Z","DAYOFWEEK":"Thursdays","STARTTIME":"3:00:00 PM","ENDTIME":"7:00:00 PM","CRDITDEBIT":"TRUE","EBTFDSTAMP":"FALSE"},"geometry":{"type":"Point","coordinates":[-122.20282587739281,47.4961329843339]}},{"type":"Feature","properties":{"OBJECTID":4,"FEATURE_ID":903014,"ESITE":"0","CODE":903,"NAME":"Steilacoom Farmers Market","ABB_NAME":"Steilacoom Farmers Market","ADDRESS":"Wilkes and Lafayette Street","ZIPCODE":"98388","CITY":"Steilacoom","LOCATION":"Corner of Lafayette & Wilkes Street","WEBSITE":"http://www.steilacoomfarmersmarket.org","COUNTYNAME":"Pierce","START_DATE":"2012-06-13T00:00:00.000Z","END_DATE":"2012-08-29T00:00:00.000Z","DAYOFWEEK":"Wednesdays","STARTTIME":"3:00:00 PM","ENDTIME":"7:00:00 PM","CRDITDEBIT":"FALSE","EBTFDSTAMP":"FALSE\n"},"geometry":{"type":"Point","coordinates":[-122.59899904190826,47.17279816722483]}},{"type":"Feature","properties":{"OBJECTID":5,"FEATURE_ID":903020,"ESITE":"0","CODE":903,"NAME":"Proctor Farmers Market","ABB_NAME":"Proctor Farmers Market","ADDRESS":"North 27th and Proctor Street","ZIPCODE":"98407","CITY":"Tacoma","LOCATION":"North 27th Street & Proctor Street","WEBSITE":"http://www.proctorfarmersmarket.com","COUNTYNAME":"Pierce","START_DATE":"2012-03-31T00:00:00.000Z","END_DATE":"2012-12-22T00:00:00.000Z","DAYOFWEEK":"Saturdays","STARTTIME":"9:00:00 AM","ENDTIME":"2:00:00 PM","CRDITDEBIT":"FALSE","EBTFDSTAMP":"FALSE\n"},"geometry":{"type":"Point","coordinates":[-122.48899842273325,47.27170180910647]}},{"type":"Feature","properties":{"OBJECTID":6,"FEATURE_ID":903022,"ESITE":"0","CODE":903,"NAME":"Tacoma 6th Avenue Farmers Market","ABB_NAME":"Tacoma 6th Avenue Farmers Market","ADDRESS":"611 North Pine Street","ZIPCODE":"98406","CITY":"Tacoma","LOCATION":"North Pine Street between 6th Avenue and North 7th","WEBSITE":"http://www.tacomafarmersmarket.com","COUNTYNAME":"Pierce","START_DATE":"2012-05-01T00:00:00.000Z","END_DATE":"2012-09-25T00:00:00.000Z","DAYOFWEEK":"Tuesdays","STARTTIME":"3:00:00 PM","ENDTIME":"7:00:00 PM","CRDITDEBIT":"TRUE","EBTFDSTAMP":"TRUE\n"},"geometry":{"type":"Point","coordinates":[-122.47299958529095,47.25600051970744]}},{"type":"Feature","properties":{"OBJECTID":7,"FEATURE_ID":903023,"ESITE":"0","CODE":903,"NAME":"Vashon Farmers Market","ABB_NAME":"Vashon Farmers Market","ADDRESS":"17519 Vashon Highway SW","ZIPCODE":"98070","CITY":"Vashon","LOCATION":"The Village Green; Vashon Highway & Bank Road","WEBSITE":"http://www.vigavashon.org","COUNTYNAME":"King","START_DATE":"2012-04-07T00:00:00.000Z","END_DATE":"2012-12-15T00:00:00.000Z","DAYOFWEEK":"Saturdays","STARTTIME":"10:00:00 AM","ENDTIME":"2:00:00 PM","CRDITDEBIT":"TRUE","EBTFDSTAMP":"TRUE\n"},"geometry":{"type":"Point","coordinates":[-122.45999908209033,47.449001309642306]}},{"type":"Feature","properties":{"OBJECTID":8,"FEATURE_ID":903026,"ESITE":"0","CODE":903,"NAME":"West Seattle Farmers Market","ABB_NAME":"West Seattle Farmers Market","ADDRESS":"44th Avenue SW & SW Alaska Street","ZIPCODE":"98116","CITY":"Seattle","LOCATION":"California Avenue SW & SW Alaska Street","WEBSITE":"http://www.seattlefarmersmarkets.org","COUNTYNAME":"King","START_DATE":"2012-01-01T00:00:00.000Z","END_DATE":"2012-12-30T00:00:00.000Z","DAYOFWEEK":"Sundays","STARTTIME":"10:00:00 AM","ENDTIME":"2:00:00 PM","CRDITDEBIT":"FALSE","EBTFDSTAMP":"TRUE\n"},"geometry":{"type":"Point","coordinates":[-122.38800048519583,47.56110000087857]}},{"type":"Feature","properties":{"OBJECTID":9,"FEATURE_ID":903029,"ESITE":"0","CODE":903,"NAME":"Shoreline Farmers Market","ABB_NAME":"Shoreline Farmers Market","ADDRESS":"17500 Midvale Ave N","ZIPCODE":"98133","CITY":"Shoreline","LOCATION":"Shoreline City Hall","WEBSITE":"","COUNTYNAME":"King","START_DATE":"2012-06-16T00:00:00.000Z","END_DATE":"2012-10-06T00:00:00.000Z","DAYOFWEEK":"Saturdays","STARTTIME":"10:00:00 AM","ENDTIME":"3:00:00 PM","CRDITDEBIT":"","EBTFDSTAMP":"\n"},"geometry":{"type":"Point","coordinates":[-122.34400175243752,47.75640106485869]}},{"type":"Feature","properties":{"OBJECTID":10,"FEATURE_ID":903032,"ESITE":"0","CODE":903,"NAME":"Pike Place Market Express @ South Lake Union","ABB_NAME":"Pike Place Market Exp-SLU","ADDRESS":"410 Terry Ave N","ZIPCODE":"98109","CITY":"Seattle","LOCATION":"410 Terry Ave North","WEBSITE":"http://www.pikeplacemarket.org","COUNTYNAME":"King","START_DATE":"2012-06-21T00:00:00.000Z","END_DATE":"2012-09-27T00:00:00.000Z","DAYOFWEEK":"Thursdays","STARTTIME":"10:30:00 AM","ENDTIME":"2:30:00 PM","CRDITDEBIT":"FALSE","EBTFDSTAMP":"FALSE\n"},"geometry":{"type":"Point","coordinates":[-122.3369979705376,47.62250137838611]}},{"type":"Feature","properties":{"OBJECTID":11,"FEATURE_ID":903040,"ESITE":"0","CODE":903,"NAME":"Lake City Farmers Market","ABB_NAME":"Lake City Farmers Market","ADDRESS":"12528 28th Ave NE","ZIPCODE":"98125","CITY":"Seattle","LOCATION":"125th Street and 28th Ave NE","WEBSITE":"http://www.seattlefarmersmarkets.org","COUNTYNAME":"King","START_DATE":"2012-06-14T00:00:00.000Z","END_DATE":"2012-10-11T00:00:00.000Z","DAYOFWEEK":"Thursdays","STARTTIME":"3:00:00 PM","ENDTIME":"7:00:00 PM","CRDITDEBIT":"FALSE","EBTFDSTAMP":"TRUE\n"},"geometry":{"type":"Point","coordinates":[-122.29799650993371,47.71960067766323]}},{"type":"Feature","properties":{"OBJECTID":12,"FEATURE_ID":903041,"ESITE":"0","CODE":903,"NAME":"Madrona Farmers Market","ABB_NAME":"Madrona Farmers Market","ADDRESS":"1186 Martin Luther King Jr. Way","ZIPCODE":"98122","CITY":"Seattle","LOCATION":"1126 Martin Luther King Jr. Way","WEBSITE":"http://madronafarmersmarket.wordpress.com/","COUNTYNAME":"King","START_DATE":"2012-05-18T00:00:00.000Z","END_DATE":"2012-09-28T00:00:00.000Z","DAYOFWEEK":"Fridays","STARTTIME":"3:00:00 PM","ENDTIME":"7:00:00 PM","CRDITDEBIT":"FALSE","EBTFDSTAMP":"TRUE\n"},"geometry":{"type":"Point","coordinates":[-122.29599763407164,47.61209868789201]}},{"type":"Feature","properties":{"OBJECTID":13,"FEATURE_ID":903050,"ESITE":"0","CODE":903,"NAME":"Renton Farmers Market","ABB_NAME":"Renton Farmers Market","ADDRESS":"Burnett Avenue S & S 3rd Street","ZIPCODE":"98057","CITY":"Renton","LOCATION":"Burnett Avenue S & S 3rd Street","WEBSITE":"http://www.rentonfarmersmarket.com","COUNTYNAME":"King","START_DATE":"2012-06-05T00:00:00.000Z","END_DATE":"2012-09-25T00:00:00.000Z","DAYOFWEEK":"Tuesdays","STARTTIME":"3:00:00 PM","ENDTIME":"7:00:00 PM","CRDITDEBIT":"FALSE","EBTFDSTAMP":"FALSE\n"},"geometry":{"type":"Point","coordinates":[-122.2080001995427,47.47969818261117]}},{"type":"Feature","properties":{"OBJECTID":14,"FEATURE_ID":903052,"ESITE":"0","CODE":903,"NAME":"Bellevue Farmers Market","ABB_NAME":"Bellevue Farmers Market","ADDRESS":"1717 Bellevue Way NE","ZIPCODE":"98004","CITY":"Bellevue","LOCATION":"1717 Bellevue Way NE","WEBSITE":"http://www.bellevuefarmersmarket.org/","COUNTYNAME":"King","START_DATE":"2012-05-10T00:00:00.000Z","END_DATE":"2012-10-01T00:00:00.000Z","DAYOFWEEK":"Thursdays","STARTTIME":"3:00:00 PM","ENDTIME":"7:00:00 PM","CRDITDEBIT":"FALSE","EBTFDSTAMP":"FALSE\n"},"geometry":{"type":"Point","coordinates":[-122.20200345965115,47.626499181151594]}},{"type":"Feature","properties":{"OBJECTID":15,"FEATURE_ID":903070,"ESITE":"0","CODE":903,"NAME":"Pike Place Market","ABB_NAME":"Pike Place Market","ADDRESS":"Pike Place between Pine & Virginia Street","ZIPCODE":"98101","CITY":"Seattle","LOCATION":"Pike Place between Pine & Virginia Street","WEBSITE":"http://www.pikeplacemarket.org","COUNTYNAME":"King","START_DATE":"2012-01-01T00:00:00.000Z","END_DATE":"2012-12-30T00:00:00.000Z","DAYOFWEEK":"Sundays","STARTTIME":"9:00:00 AM","ENDTIME":"5:00:00 PM","CRDITDEBIT":"FALSE","EBTFDSTAMP":"FALSE\n"},"geometry":{"type":"Point","coordinates":[-122.34112699909214,47.60860299903521]}},{"type":"Feature","properties":{"OBJECTID":16,"FEATURE_ID":903072,"ESITE":"0","CODE":903,"NAME":"Burien Farmers Market","ABB_NAME":"Burien Farmers Market","ADDRESS":"SW 152nd Street & 5th Place SW","ZIPCODE":"98166","CITY":"Burien","LOCATION":"SW 152nd Street & 5th Place SW","WEBSITE":"http://www.discoverburien.com/","COUNTYNAME":"King","START_DATE":"2012-05-03T00:00:00.000Z","END_DATE":"2012-10-25T00:00:00.000Z","DAYOFWEEK":"Thursdays","STARTTIME":"11:00:00 AM","ENDTIME":"6:00:00 PM","CRDITDEBIT":"FALSE","EBTFDSTAMP":"FALSE\n"},"geometry":{"type":"Point","coordinates":[-122.33956400152738,47.46672099870977]}},{"type":"Feature","properties":{"OBJECTID":17,"FEATURE_ID":903076,"ESITE":"0","CODE":903,"NAME":"Queen Anne Farmers Market","ABB_NAME":"Queen Anne Farmers Market","ADDRESS":"Crockett Street W & Queen Anne Ave N","ZIPCODE":"98119","CITY":"Seattle","LOCATION":"Crockett Street W & Queen Anne Ave N","WEBSITE":"http://www.qafma.net","COUNTYNAME":"King","START_DATE":"2012-06-07T00:00:00.000Z","END_DATE":"2012-10-11T00:00:00.000Z","DAYOFWEEK":"Thursdays","STARTTIME":"3:00:00 PM","ENDTIME":"7:30:00 PM","CRDITDEBIT":"FALSE","EBTFDSTAMP":"FALSE\n"},"geometry":{"type":"Point","coordinates":[-122.3567500010938,47.63651999907782]}},{"type":"Feature","properties":{"OBJECTID":18,"FEATURE_ID":903027,"ESITE":"0","CODE":903,"NAME":"Ballard Farmers Market","ABB_NAME":"Ballard Farmers Market","ADDRESS":"5300 Ballard Ave NW","ZIPCODE":"98117","CITY":"Seattle","LOCATION":"Ballard Avenue NW between Vernon Place NW & 22nd Avenue NW","WEBSITE":"http://ballardfarmersmarket.wordpress.com","COUNTYNAME":"King","START_DATE":"2012-01-01T00:00:00.000Z","END_DATE":"2012-12-31T00:00:00.000Z","DAYOFWEEK":"Sundays; year round","STARTTIME":"10:00:00 AM","ENDTIME":"3:00:00 PM","CRDITDEBIT":"FALSE","EBTFDSTAMP":"TRUE\n"},"geometry":{"type":"Point","coordinates":[-122.38300322048039,47.66659925989339]}},{"type":"Feature","properties":{"OBJECTID":19,"FEATURE_ID":903028,"ESITE":"0","CODE":903,"NAME":"Phinney Farmers Market","ABB_NAME":"Phinney Farmers Market","ADDRESS":"67th & Phinney Avenue North","ZIPCODE":"98105","CITY":"Seattle","LOCATION":"Avenue N & N 67th Street","WEBSITE":"http://www.seattlefarmersmarkets.org","COUNTYNAME":"King","START_DATE":"2012-06-01T00:00:00.000Z","END_DATE":"2012-10-05T00:00:00.000Z","DAYOFWEEK":"Fridays","STARTTIME":"3:00:00 PM","ENDTIME":"7:00:00 PM","CRDITDEBIT":"FALSE","EBTFDSTAMP":"FALSE\n"},"geometry":{"type":"Point","coordinates":[-122.35500337207316,47.67789839512452]}},{"type":"Feature","properties":{"OBJECTID":20,"FEATURE_ID":903035,"ESITE":"0","CODE":903,"NAME":"Des Moines Waterfront Farmers Market","ABB_NAME":"Des Moines Waterfront Farmers Market","ADDRESS":"Dock St and S 227th St","ZIPCODE":"98198","CITY":"Des Moines","LOCATION":"Des Moines Marina","WEBSITE":"http://www.dmfm.org/","COUNTYNAME":"King","START_DATE":"2012-06-02T00:00:00.000Z","END_DATE":"2012-10-27T00:00:00.000Z","DAYOFWEEK":"Saturday","STARTTIME":"10:00:00 AM","ENDTIME":"2:00:00 PM","CRDITDEBIT":"FALSE","EBTFDSTAMP":"FALSE\n"},"geometry":{"type":"Point","coordinates":[-122.32700349248661,47.397800452966344]}},{"type":"Feature","properties":{"OBJECTID":21,"FEATURE_ID":903043,"ESITE":"0","CODE":903,"NAME":"Puyallup Farmers Market","ABB_NAME":"Puyallup Farmers Market","ADDRESS":"330 South Meridian","ZIPCODE":"98371","CITY":"Puyallup","LOCATION":"333 South Meridian","WEBSITE":"http://www.puyallupmainstreet.com","COUNTYNAME":"Pierce","START_DATE":"2012-05-27T00:00:00.000Z","END_DATE":"2012-09-02T00:00:00.000Z","DAYOFWEEK":"Sundays","STARTTIME":"10:00:00 AM","ENDTIME":"3:00:00 PM","CRDITDEBIT":"FALSE","EBTFDSTAMP":"FALSE\n"},"geometry":{"type":"Point","coordinates":[-122.29299926469932,47.18939972618442]}},{"type":"Feature","properties":{"OBJECTID":22,"FEATURE_ID":903044,"ESITE":"0","CODE":903,"NAME":"Lake Forest Park Farmers Market","ABB_NAME":"Lake Forest Park Farmers Market","ADDRESS":"17171 Bothell Way NE","ZIPCODE":"91855","CITY":"Lake Forest Park","LOCATION":"17171 Bothell Way NE","WEBSITE":"www.thirdplacecommons.org","COUNTYNAME":"King","START_DATE":"2012-05-13T00:00:00.000Z","END_DATE":"2012-10-21T00:00:00.000Z","DAYOFWEEK":"Sundays","STARTTIME":"11:00:00 AM","ENDTIME":"4:00:00 PM","CRDITDEBIT":"FALSE","EBTFDSTAMP":"TRUE\n"},"geometry":{"type":"Point","coordinates":[-122.27899931186086,47.75289915666528]}},{"type":"Feature","properties":{"OBJECTID":23,"FEATURE_ID":903046,"ESITE":"0","CODE":903,"NAME":"Mercer Island Farmers Market","ABB_NAME":"Mercer Island Farmers Market","ADDRESS":"7700 SE 32nd Street","ZIPCODE":"98040","CITY":"Mercer Island","LOCATION":"7700 SE 32nd Street","WEBSITE":"http://www.mifarmersmarket.org","COUNTYNAME":"King","START_DATE":"2012-06-10T00:00:00.000Z","END_DATE":"2012-10-14T00:00:00.000Z","DAYOFWEEK":"Sundays","STARTTIME":"10:00:00 AM","ENDTIME":"3:00:00 PM","CRDITDEBIT":"FALSE","EBTFDSTAMP":"FALSE\n"},"geometry":{"type":"Point","coordinates":[-122.23400117590431,47.58190153815629]}},{"type":"Feature","properties":{"OBJECTID":24,"FEATURE_ID":903048,"ESITE":"0","CODE":903,"NAME":"Bothell Farmers Market","ABB_NAME":"Bothell Farmers Market","ADDRESS":"23718 Bothell Everett Hwy","ZIPCODE":"98021","CITY":"Bothell","LOCATION":"23718 Bothell-Everett Highway","WEBSITE":"http://www.countryvillagebothell.com/farmersmarket","COUNTYNAME":"King","START_DATE":"2012-06-01T00:00:00.000Z","END_DATE":"2012-09-28T00:00:00.000Z","DAYOFWEEK":"Fridays","STARTTIME":"12:00:00 PM","ENDTIME":"6:00:00 PM","CRDITDEBIT":"FALSE","EBTFDSTAMP":"FALSE\n"},"geometry":{"type":"Point","coordinates":[-122.22000123742913,47.782199851728265]}},{"type":"Feature","properties":{"OBJECTID":25,"FEATURE_ID":903049,"ESITE":"0","CODE":903,"NAME":"Farmers Market at Valley Medical Center","ABB_NAME":"Farmers Market at Valley Medical Center","ADDRESS":"400 South 43rd Street","ZIPCODE":"98057","CITY":"Renton","LOCATION":"400 South 43rd Street","WEBSITE":"http://www.rentonfarmersmarket.com","COUNTYNAME":"King","START_DATE":"2012-06-10T00:00:00.000Z","END_DATE":"2012-09-16T00:00:00.000Z","DAYOFWEEK":"Sundays","STARTTIME":"12:00:00 PM","ENDTIME":"4:00:00 PM","CRDITDEBIT":"FALSE","EBTFDSTAMP":"FALSE\n"},"geometry":{"type":"Point","coordinates":[-122.21299741638514,47.44189834001832]}},{"type":"Feature","properties":{"OBJECTID":26,"FEATURE_ID":903051,"ESITE":"0","CODE":903,"NAME":"Kirkland Wednesday Market","ABB_NAME":"Kirkland Wednesday Market","ADDRESS":"111 Park Lane","ZIPCODE":"98033","CITY":"Kirkland","LOCATION":"Park Lane between Lake & Main Street","WEBSITE":"http://www.kirklandwednesdaymarket.org","COUNTYNAME":"King","START_DATE":"2012-05-16T00:00:00.000Z","END_DATE":"2012-10-17T00:00:00.000Z","DAYOFWEEK":"Wednesdays","STARTTIME":"2:00:00 PM","ENDTIME":"7:00:00 PM","CRDITDEBIT":"TRUE","EBTFDSTAMP":"TRUE\n"},"geometry":{"type":"Point","coordinates":[-122.20600127657164,47.67589950292626]}},{"type":"Feature","properties":{"OBJECTID":27,"FEATURE_ID":903061,"ESITE":"0","CODE":903,"NAME":"Issaquah Farmers Market","ABB_NAME":"Issaquah Farmers Market","ADDRESS":"1730 10th Ave. N.W.","ZIPCODE":"98027","CITY":"Issaquah","LOCATION":"1730 10th Ave NW","WEBSITE":"http://www.ci.issaquah.wa.us/page.asp?navid=2394","COUNTYNAME":"King","START_DATE":"2012-04-21T00:00:00.000Z","END_DATE":"2012-10-13T00:00:00.000Z","DAYOFWEEK":"Saturdays","STARTTIME":"9:00:00 AM","ENDTIME":"2:00:00 PM","CRDITDEBIT":"TRUE","EBTFDSTAMP":"FALSE\n"},"geometry":{"type":"Point","coordinates":[-122.00700378043224,47.50989914373968]}},{"type":"Feature","properties":{"OBJECTID":28,"FEATURE_ID":903069,"ESITE":"0","CODE":903,"NAME":"Columbia City Farmers Market","ABB_NAME":"Columbia City Farmers Market","ADDRESS":"37th Avenue South & S. Edmunds St.","ZIPCODE":"98118","CITY":"Seattle","LOCATION":"37th Avenue South & S. Edmunds St.","WEBSITE":"http://www.seattlefarmersmarkets.org","COUNTYNAME":"King","START_DATE":"2012-05-02T00:00:00.000Z","END_DATE":"2012-10-17T00:00:00.000Z","DAYOFWEEK":"Wednesdays","STARTTIME":"3:00:00 PM","ENDTIME":"7:00:00 PM","CRDITDEBIT":"FALSE","EBTFDSTAMP":"TRUE\n"},"geometry":{"type":"Point","coordinates":[-122.28588900056798,47.55910499929248]}},{"type":"Feature","properties":{"OBJECTID":29,"FEATURE_ID":903071,"ESITE":"0","CODE":903,"NAME":"Sammamish Farmers Market","ABB_NAME":"Sammamish Farmers Market","ADDRESS":"801 228th Avenue  SE","ZIPCODE":"98075","CITY":"Sammamish","LOCATION":"801 228th Ave SE","WEBSITE":"http://www.sammamishfarmersmarket.org/","COUNTYNAME":"King","START_DATE":"2012-05-16T00:00:00.000Z","END_DATE":"2012-10-03T00:00:00.000Z","DAYOFWEEK":"Wednesdays","STARTTIME":"3:00:00 PM","ENDTIME":"7:00:00 PM","CRDITDEBIT":"FALSE","EBTFDSTAMP":"FALSE\n"},"geometry":{"type":"Point","coordinates":[-122.03553100118437,47.6020219992039]}},{"type":"Feature","properties":{"OBJECTID":30,"FEATURE_ID":903074,"ESITE":"0","CODE":903,"NAME":"Duvall Farmers Market","ABB_NAME":"Duvall Farmers Market","ADDRESS":"Brown Street SW & Richardson Street","ZIPCODE":"98019","CITY":"Duvall","LOCATION":"Brown Street SW & Richardson Street","WEBSITE":"http://www.duvallfarmersmarket.org","COUNTYNAME":"King","START_DATE":"2012-05-03T00:00:00.000Z","END_DATE":"2012-09-27T00:00:00.000Z","DAYOFWEEK":"Thursdays","STARTTIME":"3:00:00 PM","ENDTIME":"7:00:00 PM","CRDITDEBIT":"TRUE","EBTFDSTAMP":"TRUE\n"},"geometry":{"type":"Point","coordinates":[-121.98760799821387,47.738969999175154]}},{"type":"Feature","properties":{"OBJECTID":31,"FEATURE_ID":903075,"ESITE":"0","CODE":903,"NAME":"Federal Way Farmers Market","ABB_NAME":"Federal Way Farmers Market","ADDRESS":"31600 20th Avenue South","ZIPCODE":"98003","CITY":"Federal Way","LOCATION":"320th and Pacific Highway","WEBSITE":"http://www.federalwayfarmersmarket.com/","COUNTYNAME":"King","START_DATE":"2012-05-12T00:00:00.000Z","END_DATE":"2012-10-27T00:00:00.000Z","DAYOFWEEK":"Saturdays","STARTTIME":"9:00:00 AM","ENDTIME":"3:00:00 PM","CRDITDEBIT":"FALSE","EBTFDSTAMP":"FALSE\n"},"geometry":{"type":"Point","coordinates":[-122.30914999841562,47.31863999904181]}},{"type":"Feature","properties":{"OBJECTID":32,"FEATURE_ID":903078,"ESITE":"0","CODE":903,"NAME":"Bellevue Farmers Market","ABB_NAME":"Bellevue Farmers Market","ADDRESS":"752 108th Ave NE","ZIPCODE":"98004","CITY":"Bellevue","LOCATION":"10610 NE 8th Street","WEBSITE":"http://www.bellevuefarmersmarket.org","COUNTYNAME":"King","START_DATE":"2012-06-02T00:00:00.000Z","END_DATE":"2012-11-17T00:00:00.000Z","DAYOFWEEK":"Saturdays","STARTTIME":"10:00:00 AM","ENDTIME":"3:00:00 PM","CRDITDEBIT":"FALSE","EBTFDSTAMP":"FALSE\n"},"geometry":{"type":"Point","coordinates":[-122.20170500122698,47.62651499929553]}},{"type":"Feature","properties":{"OBJECTID":33,"FEATURE_ID":903088,"ESITE":"0","CODE":903,"NAME":"Redmond Ridge Farmers Market","ABB_NAME":"Redmond Ridge Farmers Market","ADDRESS":"10611 Redmond Ridge Drive NE ","ZIPCODE":"98053","CITY":"Redmond","LOCATION":"10611 Redmond Ridge Drive NE ","WEBSITE":"","COUNTYNAME":"King","START_DATE":"2012-05-12T00:00:00.000Z","END_DATE":"2012-10-27T00:00:00.000Z","DAYOFWEEK":"Saturdays","STARTTIME":"9:00:00 AM","ENDTIME":"2:00:00 PM","CRDITDEBIT":"FALSE","EBTFDSTAMP":"FALSE\n"},"geometry":{"type":"Point","coordinates":[-122.03643228950368,47.69294747830117]}},{"type":"Feature","properties":{"OBJECTID":34,"FEATURE_ID":903089,"ESITE":"0","CODE":903,"NAME":"Juanita Friday Market","ABB_NAME":"Juanita Friday Market","ADDRESS":"9703 NE Juanita Drive","ZIPCODE":"98034","CITY":"Kirkland","LOCATION":"9703 NE Juanita Dr","WEBSITE":"http://www.kirklandwa.gov/depart/parks/Parks/Juanita_Friday_Market.htm","COUNTYNAME":"King","START_DATE":"2012-05-11T00:00:00.000Z","END_DATE":"2012-10-05T00:00:00.000Z","DAYOFWEEK":"Fridays","STARTTIME":"3:00:00 PM","ENDTIME":"7:00:00 PM","CRDITDEBIT":"FALSE","EBTFDSTAMP":"FALSE\n"},"geometry":{"type":"Point","coordinates":[-122.2156553364053,47.70451341140223]}},{"type":"Feature","properties":{"OBJECTID":35,"FEATURE_ID":903016,"ESITE":"0","CODE":903,"NAME":"Gig Harbor Farmers Market","ABB_NAME":"Gig Harbor Farmers Market","ADDRESS":"3207 Harborview Drive","ZIPCODE":"98335","CITY":"Gig Harbor","LOCATION":"3207 Harborview Drive","WEBSITE":"http://www.gigharborfarmersmarket.com/","COUNTYNAME":"Pierce","START_DATE":"2012-06-06T00:00:00.000Z","END_DATE":"2012-09-26T00:00:00.000Z","DAYOFWEEK":"Wednesdays","STARTTIME":"12:00:00 PM","ENDTIME":"5:00:00 PM","CRDITDEBIT":"FALSE","EBTFDSTAMP":"FALSE\n"},"geometry":{"type":"Point","coordinates":[-122.58200071876017,47.33079911215612]}},{"type":"Feature","properties":{"OBJECTID":36,"FEATURE_ID":903018,"ESITE":"0","CODE":903,"NAME":"Kingston Farmers Market","ABB_NAME":"Kingston Farmers Market","ADDRESS":"25877 Washington Blvd. NE","ZIPCODE":"98346","CITY":"Kingston","LOCATION":"Corner of Central Avenue & Washington Boulevard","WEBSITE":"http://www.kingstonfarmersmarket.com/","COUNTYNAME":"Kitsap","START_DATE":"2012-05-05T00:00:00.000Z","END_DATE":"2012-10-20T00:00:00.000Z","DAYOFWEEK":"Saturdays","STARTTIME":"9:00:00 AM","ENDTIME":"2:00:00 PM","CRDITDEBIT":"FALSE","EBTFDSTAMP":"FALSE\n"},"geometry":{"type":"Point","coordinates":[-122.49600219579217,47.797199236281706]}},{"type":"Feature","properties":{"OBJECTID":37,"FEATURE_ID":903025,"ESITE":"0","CODE":903,"NAME":"Magnolia Farmers Market","ABB_NAME":"Magnolia Farmers Market","ADDRESS":"West McGraw and 33rd Ave West","ZIPCODE":"98199","CITY":"Seattle","LOCATION":"33rd Avenue W & West McGraw Street","WEBSITE":"http://www.seattlefarmersmarkets.org","COUNTYNAME":"King","START_DATE":"2012-06-09T00:00:00.000Z","END_DATE":"2012-09-29T00:00:00.000Z","DAYOFWEEK":"Saturdays","STARTTIME":"10:00:00 AM","ENDTIME":"2:00:00 PM","CRDITDEBIT":"FALSE","EBTFDSTAMP":"FALSE\n"},"geometry":{"type":"Point","coordinates":[-122.40000152330794,47.63959885769112]}},{"type":"Feature","properties":{"OBJECTID":38,"FEATURE_ID":903030,"ESITE":"0","CODE":903,"NAME":"Pike Place Market","ABB_NAME":"Pike Place Market","ADDRESS":"1531 Western Avenue","ZIPCODE":"98101","CITY":"Seattle","LOCATION":"Pike Place between Pine Street & Virginia Street","WEBSITE":"http://www.pikeplacemarket.org","COUNTYNAME":"King","START_DATE":"2012-01-01T00:00:00.000Z","END_DATE":"2012-12-31T00:00:00.000Z","DAYOFWEEK":"Monday through Saturday","STARTTIME":"9:00:00 AM","ENDTIME":"6:00:00 PM","CRDITDEBIT":"FALSE","EBTFDSTAMP":"FALSE\n"},"geometry":{"type":"Point","coordinates":[-122.34100341211965,47.60860060732133]}},{"type":"Feature","properties":{"OBJECTID":39,"FEATURE_ID":903045,"ESITE":"0","CODE":903,"NAME":"Kent Farmers Market","ABB_NAME":"Kent Farmers Market","ADDRESS":"2nd Avenue N and W Harrison Street","ZIPCODE":"98030","CITY":"Kent","LOCATION":"2nd & Smith Avenue","WEBSITE":"http://www.kentfarmersmarket.com/","COUNTYNAME":"King","START_DATE":"2012-06-02T00:00:00.000Z","END_DATE":"2012-09-29T00:00:00.000Z","DAYOFWEEK":"Saturdays","STARTTIME":"9:00:00 AM","ENDTIME":"2:00:00 PM","CRDITDEBIT":"FALSE","EBTFDSTAMP":"FALSE\n"},"geometry":{"type":"Point","coordinates":[-122.23500059846111,47.38219832536677]}},{"type":"Feature","properties":{"OBJECTID":40,"FEATURE_ID":903054,"ESITE":"0","CODE":903,"NAME":"Woodinville Farmers Market","ABB_NAME":"Woodinville Farmers Market","ADDRESS":"133rd Avenue NE","ZIPCODE":"98072","CITY":"Woodinville","LOCATION":"17301 133rd Avenue NE","WEBSITE":"http://www.woodinvillefarmersmarket.com/","COUNTYNAME":"King","START_DATE":"2012-05-05T00:00:00.000Z","END_DATE":"2012-10-13T00:00:00.000Z","DAYOFWEEK":"Saturdays","STARTTIME":"9:00:00 AM","ENDTIME":"3:00:00 PM","CRDITDEBIT":"FALSE","EBTFDSTAMP":"FALSE\n"},"geometry":{"type":"Point","coordinates":[-122.16200254592431,47.75450132889834]}},{"type":"Feature","properties":{"OBJECTID":41,"FEATURE_ID":903062,"ESITE":"0","CODE":903,"NAME":"Carnation Farmers Market","ABB_NAME":"Carnation Farmers Market","ADDRESS":"Tolt Avenue and W Bird St","ZIPCODE":"98014","CITY":"Carnation","LOCATION":"Corner of Bird and Stossel","WEBSITE":"http://www.carnationfarmersmarket.org/","COUNTYNAME":"King","START_DATE":"2012-05-01T00:00:00.000Z","END_DATE":"2012-11-22T00:00:00.000Z","DAYOFWEEK":"Tuesdays","STARTTIME":"3:00:00 PM","ENDTIME":"7:00:00 PM","CRDITDEBIT":"FALSE","EBTFDSTAMP":"FALSE\n"},"geometry":{"type":"Point","coordinates":[-121.91400144780383,47.648601538857505]}},{"type":"Feature","properties":{"OBJECTID":42,"FEATURE_ID":903073,"ESITE":"0","CODE":903,"NAME":"Crossroads Farmers Market","ABB_NAME":"Crossroads Farmers Market","ADDRESS":"15600 NE 8th Street","ZIPCODE":"98008","CITY":"Bellevue","LOCATION":"15600 NE 8th Street","WEBSITE":"http://www.crossroadsbellevue.com","COUNTYNAME":"King","START_DATE":"2012-05-29T00:00:00.000Z","END_DATE":"2012-10-03T00:00:00.000Z","DAYOFWEEK":"Tuesdays","STARTTIME":"12:00:00 PM","ENDTIME":"6:30:00 PM","CRDITDEBIT":"TRUE","EBTFDSTAMP":"TRUE\n"},"geometry":{"type":"Point","coordinates":[-122.13051891054374,47.620149997624566]}},{"type":"Feature","properties":{"OBJECTID":43,"FEATURE_ID":903034,"ESITE":"0","CODE":903,"NAME":"Pike Place Market Express @ Seattle City Hall","ABB_NAME":"Pike Place Market Exp-Seattle","ADDRESS":"600 Fourth Ave","ZIPCODE":"98101","CITY":"Seattle","LOCATION":"City Hall Plaza between Cherry & James Streets","WEBSITE":"http://www.pikeplacemarket.org","COUNTYNAME":"King","START_DATE":"2012-06-19T00:00:00.000Z","END_DATE":"2012-09-25T00:00:00.000Z","DAYOFWEEK":"Tuesdays","STARTTIME":"10:00:00 AM","ENDTIME":"2:00:00 PM","CRDITDEBIT":"FALSE","EBTFDSTAMP":"FALSE\n"},"geometry":{"type":"Point","coordinates":[-122.33000181500125,47.603801735475244]}},{"type":"Feature","properties":{"OBJECTID":44,"FEATURE_ID":903037,"ESITE":"0","CODE":903,"NAME":"Broadway Sunday Farmers Market","ABB_NAME":"Broadway Sunday Farmers Market","ADDRESS":"Broadway and Pine","ZIPCODE":"98102","CITY":"Seattle","LOCATION":"Broadway and Pine","WEBSITE":"http://www.seattlefarmersmarkets.org","COUNTYNAME":"King","START_DATE":"2012-04-22T00:00:00.000Z","END_DATE":"2012-12-23T00:00:00.000Z","DAYOFWEEK":"Sundays","STARTTIME":"11:00:00 AM","ENDTIME":"3:00:00 PM","CRDITDEBIT":"FALSE","EBTFDSTAMP":"TRUE\n"},"geometry":{"type":"Point","coordinates":[-122.320999136807,47.621200561659634]}},{"type":"Feature","properties":{"OBJECTID":45,"FEATURE_ID":903038,"ESITE":"0","CODE":903,"NAME":"University District Farmers Market","ABB_NAME":"University District Farmers Market","ADDRESS":"1350 NE 50th St","ZIPCODE":"98105","CITY":"Seattle","LOCATION":"Corner of 50th & Unviersity Way NE","WEBSITE":"http://www.seattlefarmersmarkets.org","COUNTYNAME":"King","START_DATE":"2012-01-01T00:00:00.000Z","END_DATE":"2012-12-29T00:00:00.000Z","DAYOFWEEK":"Saturdays year-round","STARTTIME":"9:00:00 AM","ENDTIME":"2:00:00 PM","CRDITDEBIT":"FALSE","EBTFDSTAMP":"TRUE\n"},"geometry":{"type":"Point","coordinates":[-122.31300353750859,47.66469956382102]}},{"type":"Feature","properties":{"OBJECTID":46,"FEATURE_ID":903053,"ESITE":"0","CODE":903,"NAME":"South County Community Farmers Market","ABB_NAME":"South County Community Farmers Market","ADDRESS":"3805 Maltby Road","ZIPCODE":"98012","CITY":"Bothell","LOCATION":"3805 Maltby Road","WEBSITE":"http://www.parkridgeonline.org/market","COUNTYNAME":"Snohomish","START_DATE":"2012-06-06T00:00:00.000Z","END_DATE":"2012-09-26T00:00:00.000Z","DAYOFWEEK":"Wednesdays","STARTTIME":"4:00:00 PM","ENDTIME":"8:00:00 PM","CRDITDEBIT":"TRUE","EBTFDSTAMP":"FALSE\n"},"geometry":{"type":"Point","coordinates":[-122.1809997653285,47.812698371031416]}},{"type":"Feature","properties":{"OBJECTID":47,"FEATURE_ID":903060,"ESITE":"0","CODE":903,"NAME":"Maple Valley Farmers Market","ABB_NAME":"Maple Valley Farmers Market","ADDRESS":"25700 Maple Valley-Black Diamond Rd SE","ZIPCODE":"98038","CITY":"Maple Valley","LOCATION":"25700 Maple Valley-Black Diamond Rd SE","WEBSITE":"http://www.maplevalleyfarmersmarket.org","COUNTYNAME":"King","START_DATE":"2012-06-16T00:00:00.000Z","END_DATE":"2012-10-06T00:00:00.000Z","DAYOFWEEK":"Saturdays","STARTTIME":"9:00:00 AM","ENDTIME":"1:00:00 PM","CRDITDEBIT":"FALSE","EBTFDSTAMP":"FALSE\n"},"geometry":{"type":"Point","coordinates":[-122.02999876167321,47.374099737854635]}},{"type":"Feature","properties":{"OBJECTID":48,"FEATURE_ID":903024,"ESITE":"0","CODE":903,"NAME":"Tacoma Broadway Farmers Market","ABB_NAME":"Tacoma Broadway Farmers Market","ADDRESS":"936 Broadway Avenue","ZIPCODE":"98402","CITY":"Tacoma","LOCATION":"Broadway between 9th and 11th","WEBSITE":"http://www.tacomafarmersmarket.com/","COUNTYNAME":"Pierce","START_DATE":"2012-05-03T00:00:00.000Z","END_DATE":"2012-10-25T00:00:00.000Z","DAYOFWEEK":"Thursdays","STARTTIME":"10:00:00 AM","ENDTIME":"3:00:00 PM","CRDITDEBIT":"TRUE","EBTFDSTAMP":"TRUE\n"},"geometry":{"type":"Point","coordinates":[-122.44000244783884,47.25400161541027]}},{"type":"Feature","properties":{"OBJECTID":49,"FEATURE_ID":903042,"ESITE":"0","CODE":903,"NAME":"Puyallup Farmers Market","ABB_NAME":"Puyallup Farmers Market","ADDRESS":"333 South Meridian","ZIPCODE":"98371","CITY":"Puyallup","LOCATION":"333 South Meridian","WEBSITE":"http://www.puyallupmainstreet.com","COUNTYNAME":"Pierce","START_DATE":"2012-04-14T00:00:00.000Z","END_DATE":"2012-10-13T00:00:00.000Z","DAYOFWEEK":"Saturdays","STARTTIME":"9:00:00 AM","ENDTIME":"2:00:00 PM","CRDITDEBIT":"FALSE","EBTFDSTAMP":"FALSE\n"},"geometry":{"type":"Point","coordinates":[-122.29399871988001,47.19179915218744]}},{"type":"Feature","properties":{"OBJECTID":50,"FEATURE_ID":903063,"ESITE":"0","CODE":903,"NAME":"North Bend Farmers Market","ABB_NAME":"North Bend Farmers Market","ADDRESS":"400 SE Orchard Drive","ZIPCODE":"98045","CITY":"North Bend","LOCATION":"400 SE Orchard Drive","WEBSITE":"http://www.siviewpark.org","COUNTYNAME":"King","START_DATE":"2012-06-14T00:00:00.000Z","END_DATE":"2012-09-13T00:00:00.000Z","DAYOFWEEK":"Thursdays","STARTTIME":"4:00:00 PM","ENDTIME":"8:00:00 PM","CRDITDEBIT":"FALSE","EBTFDSTAMP":"FALSE\n"},"geometry":{"type":"Point","coordinates":[-121.78399657292466,47.49010084752135]}},{"type":"Feature","properties":{"OBJECTID":51,"FEATURE_ID":903033,"ESITE":"0","CODE":903,"NAME":"Wallingford Farmers Market","ABB_NAME":"Wallingford Farmers Market","ADDRESS":"4649 Sunnyside Avenue North","ZIPCODE":"98103","CITY":"Seattle","LOCATION":"4649 Sunnyside Avenue North","WEBSITE":"http://www.wallingfordfarmersmarket.wordpress.com","COUNTYNAME":"King","START_DATE":"2012-05-30T00:00:00.000Z","END_DATE":"2012-09-26T00:00:00.000Z","DAYOFWEEK":"Wednesdays","STARTTIME":"3:30:00 PM","ENDTIME":"7:00:00 PM","CRDITDEBIT":"FALSE","EBTFDSTAMP":"TRUE\n"},"geometry":{"type":"Point","coordinates":[-122.33000184616627,47.66379927637492]}},{"type":"Feature","properties":{"OBJECTID":52,"FEATURE_ID":903047,"ESITE":"0","CODE":903,"NAME":"Auburn International Farmers Market","ABB_NAME":"Auburn International Farmers Market","ADDRESS":"23 A St. SW","ZIPCODE":"98001","CITY":"Auburn","LOCATION":"23 A Street SW","WEBSITE":"http://www.auburnfarmersmarket.com/","COUNTYNAME":"King","START_DATE":"2012-06-10T00:00:00.000Z","END_DATE":"2012-09-23T00:00:00.000Z","DAYOFWEEK":"Sundays","STARTTIME":"9:00:00 AM","ENDTIME":"2:00:00 PM","CRDITDEBIT":"TRUE","EBTFDSTAMP":"TRUE\n"},"geometry":{"type":"Point","coordinates":[-122.23100281219395,47.306900014593516]}},{"type":"Feature","properties":{"OBJECTID":53,"FEATURE_ID":903015,"ESITE":"0","CODE":903,"NAME":"Gig Harbor Farmers Market","ABB_NAME":"Gig Harbor Farmers Market","ADDRESS":"6808 Kimball Drive","ZIPCODE":"98335","CITY":"Gig Harbor","LOCATION":"4701 Pt. Fosdick Drive","WEBSITE":"http://www.gigharborfarmersmarket.com","COUNTYNAME":"Pierce","START_DATE":"2012-04-07T00:00:00.000Z","END_DATE":"2012-09-02T00:00:00.000Z","DAYOFWEEK":"Saturdays","STARTTIME":"8:30:00 AM","ENDTIME":"2:00:00 PM","CRDITDEBIT":"FALSE","EBTFDSTAMP":"FALSE\n"},"geometry":{"type":"Point","coordinates":[-122.58699798250575,47.32080078108128]}},{"type":"Feature","properties":{"OBJECTID":54,"FEATURE_ID":903057,"ESITE":"0","CODE":903,"NAME":"Redmond Saturday Market","ABB_NAME":"Redmond Saturday Market","ADDRESS":"7730 Leary Way NE","ZIPCODE":"98052","CITY":"Redmond","LOCATION":"7730 Leary Way NE","WEBSITE":"http://www.redmondsaturdaymarket.org","COUNTYNAME":"King","START_DATE":"2012-05-05T00:00:00.000Z","END_DATE":"2012-10-27T00:00:00.000Z","DAYOFWEEK":"Saturdays","STARTTIME":"9:00:00 AM","ENDTIME":"3:00:00 PM","CRDITDEBIT":"TRUE","EBTFDSTAMP":"FALSE\n"},"geometry":{"type":"Point","coordinates":[-122.12400054592328,47.672500597243335]}}]}